{
  "Mumbai": [
    {
      "name": "Marine Drive",
      "lat": 18.944,
      "lng": 72.823,
      "rating": 4.0,
      "open_time": "08:00",
      "close_time": "18:00",
      "visit_duration": 60.0,
      "mandatory": false
    },
    {
      "name": "Juhu Beach",
      "lat": 19.0883,
      "lng": 72.8264,
      "rating": 4.0,
      "open_time": "10:00",
      "close_time": "19:00",
      "visit_duration": 45.0,
      "mandatory": true
    },
    {
      "name": "Gateway of India",
      "lat": 18.922,
      "lng": 72.8347,
      "rating": 4.1,
      "open_time": "10:00",
      "close_time": "17:00",
      "visit_duration": 45.0,
      "mandatory": true
    },
    {
      "name": "Siddhivinayak Temple",
      "lat": 19.0176,
      "lng": 72.8302,
      "rating": 4.2,
      "open_time": "08:00",
      "close_time": "17:00",
      "visit_duration": 45.0,
      "mandatory": true
    },
    {
      "name": "Elephanta Caves",
      "lat": 18.9633,
      "lng": 72.9315,
      "rating": 4.2,
      "open_time": "10:00",
      "close_time": "17:00",
      "visit_duration": 60.0,
      "mandatory": false
    }
  ],
  "Bangalore": [
    {
      "name": "Bannerghatta National Park",
      "lat": 12.8,
      "lng": 77.577,
      "rating": 4.2,
      "open_time": "08:00",
      "close_time": "18:00",
      "visit_duration": 90.0,
      "mandatory": false
    },
    {
      "name": "Bangalore Palace",
      "lat": 12.9987,
      "lng": 77.592,
      "rating": 4.3,
      "open_time": "08:00",
      "close_time": "17:00",
      "visit_duration": 60.0,
      "mandatory": true
    },
    {
      "name": "Lalbagh Botanical Garden",
      "lat": 12.9507,
      "lng": 77.5848,
      "rating": 4.5,
      "open_time": "09:00",
      "close_time": "19:00",
      "visit_duration": 90.0,
      "mandatory": false
    },
    {
      "name": "ISKCON Temple Bangalore",
      "lat": 13.0097,
      "lng": 77.5511,
      "rating": 4.6,
      "open_time": "10:00",
      "close_time": "18:00",
      "visit_duration": 60.0,
      "mandatory": true
    },
    {
      "name": "Cubbon Park",
      "lat": 12.9763,
      "lng": 77.5929,
      "rating": 4.4,
      "open_time": "09:00",
      "close_time": "19:00",
      "visit_duration": 45.0,
      "mandatory": true
    }
  ],
  "Delhi": [
    {
      "name": "Red Fort",
      "lat": 28.6562,
      "lng": 77.241,
      "rating": 4.3,
      "open_time": "09:00",
      "close_time": "18:00",
      "visit_duration": 45.0,
      "mandatory": false
    },
    {
      "name": "Qutub Minar",
      "lat": 28.5244,
      "lng": 77.1855,
      "rating": 4.1,
      "open_time": "08:00",
      "close_time": "17:00",
      "visit_duration": 45.0,
      "mandatory": true
    },
    {
      "name": "India Gate",
      "lat": 28.6129,
      "lng": 77.2295,
      "rating": 4.6,
      "open_time": "10:00",
      "close_time": "17:00",
      "visit_duration": 45.0,
      "mandatory": true
    },
    {
      "name": "Akshardham Temple",
      "lat": 28.6127,
      "lng": 77.2773,
      "rating": 4.5,
      "open_time": "10:00",
      "close_time": "17:00",
      "visit_duration": 45.0,
      "mandatory": true
    },
    {
      "name": "Lotus Temple",
      "lat": 28.5535,
      "lng": 77.2588,
      "rating": 4.3,
      "open_time": "09:00",
      "close_time": "18:00",
      "visit_duration": 60.0,
      "mandatory": true
    }
  ],
  "Pune": [
    {
      "name": "Sinhagad Fort",
      "lat": 18.3664,
      "lng": 73.7559,
      "rating": 4.4,
      "open_time": "09:00",
      "close_time": "17:00",
      "visit_duration": 60.0,
      "mandatory": true
    },
    {
      "name": "Aga Khan Palace",
      "lat": 18.5523,
      "lng": 73.901,
      "rating": 4.8,
      "open_time": "10:00",
      "close_time": "19:00",
      "visit_duration": 45.0,
      "mandatory": false
    },
    {
      "name": "Dagdusheth Temple",
      "lat": 18.5164,
      "lng": 73.8567,
      "rating": 4.2,
      "open_time": "09:00",
      "close_time": "17:00",
      "visit_duration": 90.0,
      "mandatory": true
    },
    {
      "name": "Khadakwasla Dam",
      "lat": 18.4419,
      "lng": 73.7656,
      "rating": 4.9,
      "open_time": "10:00",
      "close_time": "18:00",
      "visit_duration": 120.0,
      "mandatory": true
    },
    {
      "name": "Shaniwar Wada",
      "lat": 18.5196,
      "lng": 73.8553,
      "rating": 4.3,
      "open_time": "08:00",
      "close_time": "19:00",
      "visit_duration": 120.0,
      "mandatory": true
    }
  ],
  "Kolkata": [
    {
      "name": "Dakshineswar Temple",
      "lat": 22.6551,
      "lng": 88.3573,
      "rating": 4.1,
      "open_time": "08:00",
      "close_time": "17:00",
      "visit_duration": 90.0,
      "mandatory": false
    },
    {
      "name": "Howrah Bridge",
      "lat": 22.5851,
      "lng": 88.3468,
      "rating": 4.0,
      "open_time": "08:00",
      "close_time": "19:00",
      "visit_duration": 45.0,
      "mandatory": true
    },
    {
      "name": "Eco Park",
      "lat": 22.5806,
      "lng": 88.4674,
      "rating": 4.1,
      "open_time": "08:00",
      "close_time": "19:00",
      "visit_duration": 90.0,
      "mandatory": false
    },
    {
      "name": "Victoria Memorial",
      "lat": 22.5448,
      "lng": 88.3426,
      "rating": 4.4,
      "open_time": "10:00",
      "close_time": "18:00",
      "visit_duration": 90.0,
      "mandatory": true
    },
    {
      "name": "Indian Museum",
      "lat": 22.558,
      "lng": 88.3509,
      "rating": 4.3,
      "open_time": "08:00",
      "close_time": "20:00",
      "visit_duration": 45.0,
      "mandatory": false
    }
  ],
  "Hyderabad": [
    {
      "name": "Charminar",
      "lat": 17.3616,
      "lng": 78.4747,
      "rating": 4.8,
      "open_time": "10:00",
      "close_time": "20:00",
      "visit_duration": 45.0,
      "mandatory": false
    },
    {
      "name": "Ramoji Film City",
      "lat": 17.2543,
      "lng": 78.6808,
      "rating": 4.6,
      "open_time": "09:00",
      "close_time": "20:00",
      "visit_duration": 45.0,
      "mandatory": false
    },
    {
      "name": "Salar Jung Museum",
      "lat": 17.3713,
      "lng": 78.4804,
      "rating": 4.8,
      "open_time": "10:00",
      "close_time": "17:00",
      "visit_duration": 60.0,
      "mandatory": false
    },
    {
      "name": "Golconda Fort",
      "lat": 17.3833,
      "lng": 78.4011,
      "rating": 4.1,
      "open_time": "09:00",
      "close_time": "20:00",
      "visit_duration": 90.0,
      "mandatory": true
    },
    {
      "name": "Hussain Sagar",
      "lat": 17.4239,
      "lng": 78.4738,
      "rating": 4.7,
      "open_time": "08:00",
      "close_time": "18:00",
      "visit_duration": 60.0,
      "mandatory": false
    }
  ],
  "Mysore": [
    {
      "name": "Chamundi Hills",
      "lat": 12.272,
      "lng": 76.67,
      "rating": 4.3,
      "open_time": "09:00",
      "close_time": "18:00",
      "visit_duration": 120.0,
      "mandatory": false
    },
    {
      "name": "Brindavan Gardens",
      "lat": 12.421,
      "lng": 76.572,
      "rating": 4.8,
      "open_time": "10:00",
      "close_time": "18:00",
      "visit_duration": 60.0,
      "mandatory": false
    },
    {
      "name": "Mysore Palace",
      "lat": 12.3051,
      "lng": 76.6551,
      "rating": 4.6,
      "open_time": "09:00",
      "close_time": "17:00",
      "visit_duration": 45.0,
      "mandatory": true
    },
    {
      "name": "Mysore Zoo",
      "lat": 12.302,
      "lng": 76.664,
      "rating": 4.4,
      "open_time": "10:00",
      "close_time": "18:00",
      "visit_duration": 45.0,
      "mandatory": false
    },
    {
      "name": "St. Philomena's Church",
      "lat": 12.321,
      "lng": 76.658,
      "rating": 4.7,
      "open_time": "10:00",
      "close_time": "18:00",
      "visit_duration": 45.0,
      "mandatory": false
    }
  ],
  "Jaipur": [
    {
      "name": "Jantar Mantar",
      "lat": 26.9248,
      "lng": 75.8246,
      "rating": 4.8,
      "open_time": "08:00",
      "close_time": "18:00",
      "visit_duration": 60.0,
      "mandatory": true
    },
    {
      "name": "Amber Fort",
      "lat": 26.9855,
      "lng": 75.8513,
      "rating": 4.1,
      "open_time": "08:00",
      "close_time": "18:00",
      "visit_duration": 120.0,
      "mandatory": false
    },
    {
      "name": "City Palace Jaipur",
      "lat": 26.9258,
      "lng": 75.8237,
      "rating": 4.7,
      "open_time": "08:00",
      "close_time": "17:00",
      "visit_duration": 90.0,
      "mandatory": true
    },
    {
      "name": "Hawa Mahal",
      "lat": 26.9239,
      "lng": 75.8267,
      "rating": 4.4,
      "open_time": "10:00",
      "close_time": "18:00",
      "visit_duration": 60.0,
      "mandatory": false
    },
    {
      "name": "Nahargarh Fort",
      "lat": 26.9368,
      "lng": 75.8153,
      "rating": 4.2,
      "open_time": "10:00",
      "close_time": "18:00",
      "visit_duration": 120.0,
      "mandatory": false
    }
  ],
  "Goa": [
    {
      "name": "Anjuna Beach",
      "lat": 15.573,
      "lng": 73.7407,
      "rating": 4.3,
      "open_time": "10:00",
      "close_time": "17:00",
      "visit_duration": 120.0,
      "mandatory": true
    },
    {
      "name": "Dudhsagar Falls",
      "lat": 15.3144,
      "lng": 74.3148,
      "rating": 4.8,
      "open_time": "10:00",
      "close_time": "17:00",
      "visit_duration": 45.0,
      "mandatory": true
    },
    {
      "name": "Basilica of Bom Jesus",
      "lat": 15.5009,
      "lng": 73.9116,
      "rating": 4.2,
      "open_time": "08:00",
      "close_time": "19:00",
      "visit_duration": 45.0,
      "mandatory": false
    },
    {
      "name": "Baga Beach",
      "lat": 15.5553,
      "lng": 73.7517,
      "rating": 4.8,
      "open_time": "10:00",
      "close_time": "18:00",
      "visit_duration": 60.0,
      "mandatory": true
    },
    {
      "name": "Fort Aguada",
      "lat": 15.4921,
      "lng": 73.7737,
      "rating": 4.0,
      "open_time": "10:00",
      "close_time": "20:00",
      "visit_duration": 60.0,
      "mandatory": false
    }
  ],
  "Chennai": [
    {
      "name": "Fort St George",
      "lat": 13.0796,
      "lng": 80.287,
      "rating": 4.6,
      "open_time": "10:00",
      "close_time": "19:00",
      "visit_duration": 45.0,
      "mandatory": false
    },
    {
      "name": "Marina Beach",
      "lat": 13.05,
      "lng": 80.2824,
      "rating": 4.9,
      "open_time": "08:00",
      "close_time": "17:00",
      "visit_duration": 120.0,
      "mandatory": true
    },
    {
      "name": "Valluvar Kottam",
      "lat": 13.0526,
      "lng": 80.2425,
      "rating": 4.3,
      "open_time": "10:00",
      "close_time": "19:00",
      "visit_duration": 90.0,
      "mandatory": false
    },
    {
      "name": "Kapaleeshwarar Temple",
      "lat": 13.0339,
      "lng": 80.2697,
      "rating": 4.8,
      "open_time": "09:00",
      "close_time": "20:00",
      "visit_duration": 60.0,
      "mandatory": true
    },
    {
      "name": "Guindy National Park",
      "lat": 13.0067,
      "lng": 80.2206,
      "rating": 4.8,
      "open_time": "09:00",
      "close_time": "17:00",
      "visit_duration": 60.0,
      "mandatory": false
    }
  ],
  "Agra": [
    {
      "name": "Taj Mahal",
      "lat": 27.1751,
      "lng": 78.0421,
      "rating": 4.9,
      "open_time": "06:00",
      "close_time": "18:00",
      "visit_duration": 120.0,
      "mandatory": true
    },
    {
      "name": "Agra Fort",
      "lat": 27.18,
      "lng": 78.0219,
      "rating": 4.4,
      "open_time": "06:00",
      "close_time": "18:00",
      "visit_duration": 90.0,
      "mandatory": true
    },
    {
      "name": "Fatehpur Sikri",
      "lat": 27.0945,
      "lng": 77.6677,
      "rating": 4.3,
      "open_time": "09:00",
      "close_time": "17:00",
      "visit_duration": 90.0,
      "mandatory": false
    },
    {
      "name": "Mehtab Bagh",
      "lat": 27.1803,
      "lng": 78.0335,
      "rating": 4.2,
      "open_time": "07:00",
      "close_time": "19:00",
      "visit_duration": 60.0,
      "mandatory": false
    },
    {
      "name": "Itmad-ud-Daula",
      "lat": 27.1942,
      "lng": 78.0432,
      "rating": 4.3,
      "open_time": "06:00",
      "close_time": "18:00",
      "visit_duration": 60.0,
      "mandatory": false
    }
  ],
  "Varanasi": [
    {
      "name": "Dashashwamedh Ghat",
      "lat": 25.3109,
      "lng": 83.0107,
      "rating": 4.7,
      "open_time": "05:00",
      "close_time": "22:00",
      "visit_duration": 90.0,
      "mandatory": true
    },
    {
      "name": "Kashi Vishwanath Temple",
      "lat": 25.3109,
      "lng": 83.0107,
      "rating": 4.8,
      "open_time": "04:00",
      "close_time": "23:00",
      "visit_duration": 60.0,
      "mandatory": true
    },
    {
      "name": "Sarnath",
      "lat": 25.3719,
      "lng": 83.0243,
      "rating": 4.4,
      "open_time": "09:00",
      "close_time": "17:00",
      "visit_duration": 90.0,
      "mandatory": false
    },
    {
      "name": "Manikarnika Ghat",
      "lat": 25.3132,
      "lng": 83.0124,
      "rating": 4.2,
      "open_time": "00:00",
      "close_time": "23:59",
      "visit_duration": 45.0,
      "mandatory": false
    },
    {
      "name": "Ramnagar Fort",
      "lat": 25.2744,
      "lng": 83.0297,
      "rating": 4.1,
      "open_time": "09:00",
      "close_time": "17:00",
      "visit_duration": 60.0,
      "mandatory": false
    }
  ],
  "Udaipur": [
    {
      "name": "City Palace Udaipur",
      "lat": 24.5763,
      "lng": 73.6832,
      "rating": 4.6,
      "open_time": "09:30",
      "close_time": "17:30",
      "visit_duration": 120.0,
      "mandatory": true
    },
    {
      "name": "Lake Pichola",
      "lat": 24.5731,
      "lng": 73.6759,
      "rating": 4.7,
      "open_time": "09:00",
      "close_time": "18:00",
      "visit_duration": 90.0,
      "mandatory": true
    },
    {
      "name": "Jag Mandir",
      "lat": 24.5664,
      "lng": 73.6744,
      "rating": 4.4,
      "open_time": "10:00",
      "close_time": "18:00",
      "visit_duration": 60.0,
      "mandatory": false
    },
    {
      "name": "Sajjangarh Palace",
      "lat": 24.5882,
      "lng": 73.6458,
      "rating": 4.3,
      "open_time": "09:00",
      "close_time": "18:00",
      "visit_duration": 60.0,
      "mandatory": false
    },
    {
      "name": "Saheliyon-ki-Bari",
      "lat": 24.5924,
      "lng": 73.6862,
      "rating": 4.2,
      "open_time": "09:00",
      "close_time": "19:00",
      "visit_duration": 45.0,
      "mandatory": false
    }
  ],
  "Amritsar": [
    {
      "name": "Golden Temple",
      "lat": 31.62,
      "lng": 74.8765,
      "rating": 4.9,
      "open_time": "04:00",
      "close_time": "23:00",
      "visit_duration": 90.0,
      "mandatory": true
    },
    {
      "name": "Jallianwala Bagh",
      "lat": 31.6215,
      "lng": 74.8783,
      "rating": 4.5,
      "open_time": "06:30",
      "close_time": "19:30",
      "visit_duration": 60.0,
      "mandatory": true
    },
    {
      "name": "Wagah Border",
      "lat": 31.6049,
      "lng": 74.5743,
      "rating": 4.6,
      "open_time": "15:00",
      "close_time": "18:00",
      "visit_duration": 90.0,
      "mandatory": true
    },
    {
      "name": "Durgiana Temple",
      "lat": 31.634,
      "lng": 74.8722,
      "rating": 4.4,
      "open_time": "06:00",
      "close_time": "21:00",
      "visit_duration": 45.0,
      "mandatory": false
    },
    {
      "name": "Partition Museum",
      "lat": 31.6193,
      "lng": 74.877,
      "rating": 4.5,
      "open_time": "10:00",
      "close_time": "17:00",
      "visit_duration": 60.0,
      "mandatory": false
    }
  ],
  "Shimla": [
    {
      "name": "The Ridge",
      "lat": 31.1048,
      "lng": 77.1734,
      "rating": 4.5,
      "open_time": "08:00",
      "close_time": "20:00",
      "visit_duration": 60.0,
      "mandatory": true
    },
    {
      "name": "Mall Road Shimla",
      "lat": 31.1036,
      "lng": 77.1729,
      "rating": 4.4,
      "open_time": "09:00",
      "close_time": "21:00",
      "visit_duration": 90.0,
      "mandatory": true
    },
    {
      "name": "Jakhu Temple",
      "lat": 31.1012,
      "lng": 77.1781,
      "rating": 4.5,
      "open_time": "07:00",
      "close_time": "19:00",
      "visit_duration": 60.0,
      "mandatory": false
    },
    {
      "name": "Kufri",
      "lat": 31.0984,
      "lng": 77.2672,
      "rating": 4.3,
      "open_time": "09:00",
      "close_time": "17:00",
      "visit_duration": 90.0,
      "mandatory": false
    },
    {
      "name": "Christ Church Shimla",
      "lat": 31.1044,
      "lng": 77.1729,
      "rating": 4.4,
      "open_time": "08:00",
      "close_time": "18:00",
      "visit_duration": 45.0,
      "mandatory": false
    }
  ],
  "Manali": [
    {
      "name": "Rohtang Pass",
      "lat": 32.372,
      "lng": 77.2505,
      "rating": 4.6,
      "open_time": "07:00",
      "close_time": "16:00",
      "visit_duration": 180.0,
      "mandatory": true
    },
    {
      "name": "Solang Valley",
      "lat": 32.3222,
      "lng": 77.159,
      "rating": 4.5,
      "open_time": "08:00",
      "close_time": "17:00",
      "visit_duration": 120.0,
      "mandatory": true
    },
    {
      "name": "Hadimba Devi Temple",
      "lat": 32.2412,
      "lng": 77.1822,
      "rating": 4.5,
      "open_time": "08:00",
      "close_time": "18:00",
      "visit_duration": 60.0,
      "mandatory": true
    },
    {
      "name": "Old Manali",
      "lat": 32.259,
      "lng": 77.1861,
      "rating": 4.3,
      "open_time": "09:00",
      "close_time": "20:00",
      "visit_duration": 90.0,
      "mandatory": false
    },
    {
      "name": "Beas River",
      "lat": 32.2396,
      "lng": 77.189,
      "rating": 4.4,
      "open_time": "08:00",
      "close_time": "18:00",
      "visit_duration": 60.0,
      "mandatory": false
    }
  ],
  "Kochi": [
    {
      "name": "Fort Kochi",
      "lat": 9.9653,
      "lng": 76.2425,
      "rating": 4.5,
      "open_time": "08:00",
      "close_time": "20:00",
      "visit_duration": 90.0,
      "mandatory": true
    },
    {
      "name": "Chinese Fishing Nets",
      "lat": 9.9671,
      "lng": 76.2408,
      "rating": 4.4,
      "open_time": "07:00",
      "close_time": "18:00",
      "visit_duration": 45.0,
      "mandatory": true
    },
    {
      "name": "Mattancherry Palace",
      "lat": 9.9576,
      "lng": 76.2594,
      "rating": 4.3,
      "open_time": "10:00",
      "close_time": "17:00",
      "visit_duration": 60.0,
      "mandatory": false
    },
    {
      "name": "Jew Town Kochi",
      "lat": 9.957,
      "lng": 76.2598,
      "rating": 4.3,
      "open_time": "09:00",
      "close_time": "18:00",
      "visit_duration": 60.0,
      "mandatory": false
    },
    {
      "name": "Marine Drive Kochi",
      "lat": 9.9847,
      "lng": 76.2792,
      "rating": 4.4,
      "open_time": "06:00",
      "close_time": "22:00",
      "visit_duration": 60.0,
      "mandatory": false
    }
  ],
  "Thiruvananthapuram": [
    {
      "name": "Padmanabhaswamy Temple",
      "lat": 8.4824,
      "lng": 76.9478,
      "rating": 4.7,
      "open_time": "06:30",
      "close_time": "19:30",
      "visit_duration": 90.0,
      "mandatory": true
    },
    {
      "name": "Napier Museum",
      "lat": 8.5119,
      "lng": 76.9564,
      "rating": 4.3,
      "open_time": "10:00",
      "close_time": "17:00",
      "visit_duration": 60.0,
      "mandatory": false
    },
    {
      "name": "Kovalam Beach",
      "lat": 8.3988,
      "lng": 76.9784,
      "rating": 4.5,
      "open_time": "08:00",
      "close_time": "20:00",
      "visit_duration": 120.0,
      "mandatory": true
    },
    {
      "name": "Veli Tourist Village",
      "lat": 8.4701,
      "lng": 76.9291,
      "rating": 4.2,
      "open_time": "09:00",
      "close_time": "18:00",
      "visit_duration": 60.0,
      "mandatory": false
    },
    {
      "name": "Kuthiramalika Palace",
      "lat": 8.4821,
      "lng": 76.9461,
      "rating": 4.3,
      "open_time": "09:00",
      "close_time": "13:00",
      "visit_duration": 60.0,
      "mandatory": false
    }
  ],
  "Ahmedabad": [
    {
      "name": "Sabarmati Ashram",
      "lat": 23.0629,
      "lng": 72.5803,
      "rating": 4.6,
      "open_time": "08:30",
      "close_time": "18:30",
      "visit_duration": 90.0,
      "mandatory": true
    },
    {
      "name": "Adalaj Stepwell",
      "lat": 23.1677,
      "lng": 72.5797,
      "rating": 4.5,
      "open_time": "08:00",
      "close_time": "17:00",
      "visit_duration": 60.0,
      "mandatory": true
    },
    {
      "name": "Kankaria Lake",
      "lat": 22.9972,
      "lng": 72.6022,
      "rating": 4.3,
      "open_time": "09:00",
      "close_time": "21:00",
      "visit_duration": 90.0,
      "mandatory": false
    },
    {
      "name": "Sidi Saiyyed Mosque",
      "lat": 23.0252,
      "lng": 72.5849,
      "rating": 4.5,
      "open_time": "08:00",
      "close_time": "19:00",
      "visit_duration": 45.0,
      "mandatory": false
    },
    {
      "name": "Science City Ahmedabad",
      "lat": 23.0377,
      "lng": 72.5697,
      "rating": 4.4,
      "open_time": "10:00",
      "close_time": "19:00",
      "visit_duration": 120.0,
      "mandatory": false
    }
  ],
  "Rishikesh": [
    {
      "name": "Laxman Jhula",
      "lat": 30.1291,
      "lng": 78.3215,
      "rating": 4.5,
      "open_time": "06:00",
      "close_time": "22:00",
      "visit_duration": 60.0,
      "mandatory": true
    },
    {
      "name": "Ram Jhula",
      "lat": 30.1238,
      "lng": 78.3149,
      "rating": 4.4,
      "open_time": "06:00",
      "close_time": "22:00",
      "visit_duration": 60.0,
      "mandatory": true
    },
    {
      "name": "Triveni Ghat",
      "lat": 30.1149,
      "lng": 78.3141,
      "rating": 4.5,
      "open_time": "05:00",
      "close_time": "21:00",
      "visit_duration": 60.0,
      "mandatory": true
    },
    {
      "name": "Neelkanth Mahadev Temple",
      "lat": 30.1888,
      "lng": 78.3645,
      "rating": 4.6,
      "open_time": "07:00",
      "close_time": "18:00",
      "visit_duration": 90.0,
      "mandatory": false
    },
    {
      "name": "Rajaji National Park",
      "lat": 29.9457,
      "lng": 78.1607,
      "rating": 4.4,
      "open_time": "06:00",
      "close_time": "18:00",
      "visit_duration": 180.0,
      "mandatory": false
    }
  ],
  "Darjeeling": [
    {
      "name": "Tiger Hill",
      "lat": 26.9824,
      "lng": 88.259,
      "rating": 4.6,
      "open_time": "04:00",
      "close_time": "08:00",
      "visit_duration": 90.0,
      "mandatory": true
    },
    {
      "name": "Toy Train Darjeeling",
      "lat": 27.041,
      "lng": 88.2663,
      "rating": 4.7,
      "open_time": "08:00",
      "close_time": "17:00",
      "visit_duration": 120.0,
      "mandatory": true
    },
    {
      "name": "Batasia Loop",
      "lat": 27.0165,
      "lng": 88.2539,
      "rating": 4.5,
      "open_time": "08:00",
      "close_time": "18:00",
      "visit_duration": 60.0,
      "mandatory": false
    },
    {
      "name": "Happy Valley Tea Estate",
      "lat": 27.0499,
      "lng": 88.2635,
      "rating": 4.4,
      "open_time": "09:00",
      "close_time": "17:00",
      "visit_duration": 90.0,
      "mandatory": false
    },
    {
      "name": "Peace Pagoda Darjeeling",
      "lat": 27.0444,
      "lng": 88.2642,
      "rating": 4.4,
      "open_time": "05:00",
      "close_time": "19:00",
      "visit_duration": 60.0,
      "mandatory": false
    }
  ],
  "Jodhpur": [
    {
      "name": "Mehrangarh Fort",
      "lat": 26.2979,
      "lng": 73.0185,
      "rating": 4.7,
      "open_time": "09:00",
      "close_time": "17:00",
      "visit_duration": 120.0,
      "mandatory": true
    },
    {
      "name": "Jaswant Thada",
      "lat": 26.3017,
      "lng": 73.0153,
      "rating": 4.4,
      "open_time": "09:00",
      "close_time": "17:00",
      "visit_duration": 60.0,
      "mandatory": true
    },
    {
      "name": "Umaid Bhawan Palace",
      "lat": 26.291,
      "lng": 73.0381,
      "rating": 4.5,
      "open_time": "09:00",
      "close_time": "17:00",
      "visit_duration": 90.0,
      "mandatory": false
    },
    {
      "name": "Clock Tower Jodhpur",
      "lat": 26.2867,
      "lng": 73.0244,
      "rating": 4.3,
      "open_time": "08:00",
      "close_time": "21:00",
      "visit_duration": 60.0,
      "mandatory": false
    },
    {
      "name": "Mandore Gardens",
      "lat": 26.3451,
      "lng": 73.0152,
      "rating": 4.2,
      "open_time": "08:00",
      "close_time": "18:00",
      "visit_duration": 60.0,
      "mandatory": false
    }
  ],
  "Pushkar": [
    {
      "name": "Brahma Temple Pushkar",
      "lat": 26.4889,
      "lng": 74.5511,
      "rating": 4.5,
      "open_time": "06:30",
      "close_time": "20:30",
      "visit_duration": 60.0,
      "mandatory": true
    },
    {
      "name": "Pushkar Lake",
      "lat": 26.487,
      "lng": 74.5522,
      "rating": 4.4,
      "open_time": "05:00",
      "close_time": "21:00",
      "visit_duration": 90.0,
      "mandatory": true
    },
    {
      "name": "Savitri Temple",
      "lat": 26.4901,
      "lng": 74.5495,
      "rating": 4.3,
      "open_time": "07:00",
      "close_time": "18:00",
      "visit_duration": 60.0,
      "mandatory": false
    },
    {
      "name": "Pushkar Bazaar",
      "lat": 26.4881,
      "lng": 74.5542,
      "rating": 4.2,
      "open_time": "09:00",
      "close_time": "21:00",
      "visit_duration": 60.0,
      "mandatory": false
    },
    {
      "name": "Rose Garden Pushkar",
      "lat": 26.4843,
      "lng": 74.5509,
      "rating": 4.0,
      "open_time": "09:00",
      "close_time": "18:00",
      "visit_duration": 45.0,
      "mandatory": false
    }
  ],
  "Ooty": [
    {
      "name": "Ooty Lake",
      "lat": 11.4128,
      "lng": 76.695,
      "rating": 4.3,
      "open_time": "09:00",
      "close_time": "18:00",
      "visit_duration": 90.0,
      "mandatory": true
    },
    {
      "name": "Botanical Garden Ooty",
      "lat": 11.4236,
      "lng": 76.7017,
      "rating": 4.4,
      "open_time": "08:00",
      "close_time": "18:00",
      "visit_duration": 90.0,
      "mandatory": true
    },
    {
      "name": "Doddabetta Peak",
      "lat": 11.4067,
      "lng": 76.7401,
      "rating": 4.4,
      "open_time": "07:00",
      "close_time": "18:00",
      "visit_duration": 60.0,
      "mandatory": false
    },
    {
      "name": "Nilgiri Mountain Railway",
      "lat": 11.4109,
      "lng": 76.6945,
      "rating": 4.6,
      "open_time": "09:00",
      "close_time": "17:00",
      "visit_duration": 120.0,
      "mandatory": true
    },
    {
      "name": "Rose Garden Ooty",
      "lat": 11.4179,
      "lng": 76.702,
      "rating": 4.3,
      "open_time": "08:00",
      "close_time": "18:00",
      "visit_duration": 60.0,
      "mandatory": false
    }
  ],
  "Madurai": [
    {
      "name": "Meenakshi Amman Temple",
      "lat": 9.9195,
      "lng": 78.1193,
      "rating": 4.8,
      "open_time": "05:00",
      "close_time": "21:00",
      "visit_duration": 90.0,
      "mandatory": true
    },
    {
      "name": "Thirumalai Nayakar Palace",
      "lat": 9.9201,
      "lng": 78.1244,
      "rating": 4.4,
      "open_time": "09:00",
      "close_time": "17:00",
      "visit_duration": 60.0,
      "mandatory": true
    },
    {
      "name": "Gandhi Museum Madurai",
      "lat": 9.9288,
      "lng": 78.1201,
      "rating": 4.3,
      "open_time": "10:00",
      "close_time": "17:30",
      "visit_duration": 60.0,
      "mandatory": false
    },
    {
      "name": "Alagar Kovil",
      "lat": 10.0318,
      "lng": 78.1498,
      "rating": 4.4,
      "open_time": "06:00",
      "close_time": "19:00",
      "visit_duration": 60.0,
      "mandatory": false
    },
    {
      "name": "Vandiyur Mariamman Teppakulam",
      "lat": 9.9105,
      "lng": 78.1361,
      "rating": 4.2,
      "open_time": "06:00",
      "close_time": "20:00",
      "visit_duration": 45.0,
      "mandatory": false
    }
  ]
}